[
  {
    "lng": -73.89386749267578,
    "name": "Grand Ave and 69th Ln",
    "id": "40.726803,-73.89387",
    "lat": 40.726802825927734
  },
  {
    "lng": -73.78123474121094,
    "name": "Wexford Ter and Avon St",
    "id": "40.714542,-73.781235",
    "lat": 40.714542388916016
  },
  {
    "lng": -74.01995849609375,
    "name": "6th Ave and 74th St",
    "id": "40.628838,-74.01996",
    "lat": 40.62883758544922
  },
  {
    "lng": -73.91531372070312,
    "name": "E 163rd St and Teller Ave",
    "id": "40.826546,-73.91531",
    "lat": 40.82654571533203
  },
  {
    "lng": -74.00146484375,
    "name": "Bank St and Greenwich Ave",
    "id": "40.737167,-74.001465",
    "lat": 40.73716735839844
  },
  {
    "lng": -73.83316040039062,
    "name": "Bartow Ave and Edson Ave",
    "id": "40.86832,-73.83316",
    "lat": 40.86832046508789
  },
  {
    "lng": -73.8479232788086,
    "name": "E Gun Hill Rd and Young Ave",
    "id": "40.87134,-73.84792",
    "lat": 40.871341705322266
  }
]